Roll;Pitch;COG_MAG;Ax;Ay;Az;T0;T1;Year;Month;Day;Hour;Min;Sec;Nanoseconds;Vn;Ve;Vd;H;AHor;AVert;ASpeed;AHeading;Time;GPSFlags;NbSat;Latitude;Longitude;Altitude_GPS;Vx;Vy;Vz;Accuracy;PosAccuracy;VelAccuracy;Status
1,686129;2,003155;-131;0,4070177;-0,2689962;-9,798152;39,37683;49,89624;9;1;1;0;0;21;442146133;0;0;0;0;4294967295;3750000128;4902;18000000;550709250;4;0;170;-5;1;-0,07911044;0,1429863;-0,1382877;0,7263222;1,733031E+07;173,3867;1081343
1,68491;2,004657;-131;0,3294153;-0,2913284;-9,818033;39,40201;49,89624;9;1;1;0;0;21;742146133;0;0;0;0;4294967295;3750000128;4928;18000000;550709500;4;0;174;-6;1;-0,08075854;0,1489189;-0,1419213;0,7256323;1,733031E+07;173,3867;1081343
1,681607;2,007012;-132;0,3293972;-0,2717352;-9,825773;39,3869;49,81995;9;1;1;0;0;22;282146133;0;0;0;0;4294967295;3750000128;4978;18000000;550710000;4;0;183;-8;1;-0,08238385;0,1582297;-0,1469322;0,7266883;1,733031E+07;173,3867;1081343
1,675042;1,989907;-132;0,3462982;-0,271636;-9,810918;39,41208;49,81995;9;1;1;0;0;22;582146000;0;0;0;0;4294967295;3750000128;5003;18000000;550710250;4;0;188;-9;1;-0,08262374;0,1636255;-0,1501596;0,7274913;1,733031E+07;173,3867;1081343
1,689616;1,962441;-133;0,3220482;-0,2815228;-9,815847;39,40704;49,81995;9;1;1;0;0;23;222146000;0;0;0;0;4294967295;3750000128;5078;18000000;550711000;4;0;198;-12;1;-0,08285148;0,1752945;-0,157135;0,7292947;1,733031E+07;173,3867;1081343
1,705832;1,955238;-133;0,3438044;-0,2936459;-9,793353;39,37683;49,81995;9;1;1;0;0;23;502146266;0;0;0;0;4294967295;3750000128;5102;18000000;550711250;4;0;203;-14;1;-0,08250403;0,1806964;-0,1600835;0,7301483;1,733031E+07;173,3867;1081343
1,696074;1,966836;-135;0,3439779;-0,2667961;-9,825734;39,37683;49,81995;9;1;1;0;0;24;742146333;0;0;0;0;4294967295;3750000128;5223;18000000;550712500;12;0;226;-23;1;-0,07929153;0,2122786;-0,1729888;0,7327018;1,733031E+07;173,3867;1081343
1,687275;1,970418;-135;0,3340998;-0,2545118;-9,816271;39,42215;49,81995;9;1;1;0;0;25;22146000;0;0;0;0;4294967295;3750000128;5247;18000000;550712750;12;0;231;-25;1;-0,07851272;0,218111;-0,1759467;0,733137;1,733031E+07;173,3867;1081343
1,71383;1,965367;-136;0,3341856;-0,2692404;-9,818427;39,41711;49,81995;9;1;1;0;0;25;882146200;0;0;0;0;4294967295;3750000128;5318;18000000;550713500;12;0;249;-33;1;-0,07395907;0,2359821;-0,1844675;0,7340652;1,733031E+07;173,3867;1081343
1,714327;1,967394;-137;0,3244553;-0,2496786;-9,828707;39,41208;49,81995;9;1;1;0;0;26;482146200;0;0;0;0;4294967295;3750000128;5388;18000000;550714250;12;0;261;-40;2;-0,07179898;0,2483698;-0,1908334;0,7343259;1,733031E+07;173,3867;1081343
1,730155;1,960279;-137;0,3294277;-0,2888861;-9,820532;39,42719;49,81995;9;1;1;0;0;26;822146066;0;0;0;0;4294967295;3750000128;5411;18000000;550714500;12;0;268;-44;2;-0,0703247;0,2561141;-0,1948267;0,7344192;1,733031E+07;173,3867;1081343
1,677639;1,965425;-138;0,3462;-0,2593498;-9,806263;39,41208;49,81995;9;1;1;0;0;27;422146133;0;0;0;0;4294967295;3750000128;5480;18000000;550715250;12;0;281;-52;2;-0,07001606;0,26841;-0,2016642;0,7337531;1,733031E+07;173,3867;1081343
1,673142;1,98171;-138;0,3390293;-0,2790117;-9,810839;39,39697;49,81995;9;1;1;0;0;27;702146266;0;0;0;0;4294967295;3750000128;5503;18000000;550715500;12;0;287;-56;2;-0,0693699;0,2720171;-0,2045407;0,7336759;1,733031E+07;173,3867;1081343
1,662579;1,953487;-139;0,3390722;-0,2839279;-9,81319;39,45236;49,81995;9;1;1;0;0;28;682146200;0;0;0;0;4294967295;3750000128;5593;18000000;550716500;12;0;308;-71;2;-0,06673623;0,285421;-0,215593;0,7323574;1,733031E+07;173,3867;1081343
1,664323;1,959607;-140;0,3414621;-0,279006;-9,810816;39,4574;49,81995;9;1;1;0;0;28;942146133;0;0;0;0;4294967295;3750000128;5616;18000000;550716750;12;0;314;-75;2;-0,06584846;0,2883966;-0,2185289;0,7314257;1,733031E+07;173,3867;1081343
1,650284;1,978977;-141;0,3390522;-0,2741261;-9,815836;39,42719;49,81995;9;1;1;0;0;29;562146066;0;0;0;0;4294967295;3750000128;5660;18000000;550717250;12;0;327;-86;2;-0,06644417;0,2963405;-0,2256287;0,7293748;1,733031E+07;173,3867;1081343
1,643446;1,969832;-141;0,3415623;-0,2814999;-9,820565;39,46243;49,81995;9;1;1;0;0;29;822146066;0;0;0;0;4294967295;3750000128;5682;18000000;550717750;12;0;333;-90;2;-0,06623629;0,2995029;-0,2284409;0,7286707;1,733031E+07;173,3867;1081343
1,644044;1,953552;-142;0,3366156;-0,2888184;-9,808215;39,43726;49,89624;9;1;1;0;0;30;422146000;0;0;0;0;4294967295;3750000128;5748;18000000;550718250;12;0;347;-101;2;-0,06284001;0,3061489;-0,2340625;0,7259678;1,733031E+07;173,3867;1081343
1,627575;1,95151;-142;0,3439293;-0,2814636;-9,813193;39,44229;49,81995;9;1;1;0;0;30;682146133;0;0;0;0;4294967295;3750000128;5769;18000000;550718500;12;0;352;-106;2;-0,06224433;0,3090221;-0,2357993;0,7249724;1,733031E+07;173,3867;1081343
1,577533;1,945181;-144;0,346365;-0,2765627;-9,815719;39,46747;49,81995;9;1;1;0;0;32;522146066;0;0;0;0;4294967295;3750000128;5919;18000000;550720250;12;0;392;-141;3;-0,05392073;0,3072389;-0,2528199;0,7144436;1,733031E+07;173,3867;1081343
1,599535;1,90767;-144;0,3559122;-0,2593174;-9,803722;39,45236;49,89624;9;1;1;0;0;32;822146000;0;0;0;0;4294967295;3750000128;5940;18000000;550720750;12;0;399;-147;3;-0,05205944;0,3072429;-0,2549579;0,7125984;1,733031E+07;173,3867;1081343
1,555379;1,928897;-144;0,3414402;-0,2740993;-9,810914;39,45236;49,89624;9;1;1;0;0;33;62146133;0;0;0;0;4294967295;3750000128;5961;18000000;550720750;12;0;404;-152;3;-0,04981432;0,3076012;-0,2583672;0,7115293;1,733031E+07;173,3867;1081343
1,500786;1,915791;-144;0,3413754;-0,2642765;-9,808659;39,45236;49,89624;9;1;1;0;0;33;382146000;0;0;0;0;4294967295;3750000128;5982;18000000;550721000;12;0;410;-158;3;-0,04733014;0,3053416;-0,2607921;0,7100611;1,733031E+07;173,3867;1081343
1,463372;1,919301;-145;0,3268194;-0,2643299;-9,813693;39,44733;49,97253;9;1;1;0;0;34;282146000;0;0;0;0;4294967295;3750000128;6065;18000000;550722000;12;0;428;-176;3;-0,04108617;0,2891699;-0,2696079;0,7045147;1,733031E+07;173,3867;1081343
1,5006;1,9179;-145;0,351099;-0,2666969;-9,80607;39,46243;49,89624;9;1;1;0;0;34;562146066;0;0;0;0;4294967295;3750000128;6086;18000000;550722254;12;0;433;-181;3;-0,03939268;0,2840185;-0,2725638;0,7043599;1,733031E+07;173,3867;1081343
1,489217;1,938777;-145;0,3341084;-0,2667561;-9,811128;39,46243;49,89624;9;1;1;0;0;34;862146333;0;0;0;0;4294967295;3750000128;6105;18000000;550722750;12;0;438;-187;3;-0,03804532;0,2801403;-0,2760375;0,7082522;1,733031E+07;173,3867;1081343
1,488515;1,917367;-146;0,3437672;-0,2544584;-9,808831;39,44733;49,89624;9;1;1;0;0;35;122146200;0;0;0;0;4294967295;3750000128;6146;18000000;550723000;12;0;443;-192;4;-0,03614782;0,2763809;-0,2783401;0,7122153;1,733031E+07;173,3867;1081343
1,506489;1,933172;-146;0,3486319;-0,2691355;-9,801146;39,48257;49,89624;9;1;1;0;0;35;682146200;0;0;0;0;4294967295;3750000128;6187;18000000;550723500;12;0;453;-203;4;-0,03222446;0,2691304;-0,2835244;0,7189705;1,733031E+07;173,3867;1081343
1,531965;1,911855;-146;0,3390741;-0,2741356;-9,818285;39,49265;49,89624;9;1;1;0;0;35;962146200;0;0;0;0;4294967295;3750000128;6207;18000000;550723750;12;0;457;-208;4;-0,03122437;0,2660781;-0,2869198;0,72311;1,733031E+07;173,3867;1081343
1,559323;1,900384;-146;0,339139;-0,2888546;-9,817991;39,45236;49,89624;9;1;1;0;0;36;222145933;0;0;0;0;4294967295;3750000128;6227;18000000;550724000;12;0;461;-213;4;-0,02803896;0,2653008;-0,2895613;0,7273111;1,733031E+07;173,3867;1081343
1,58664;1,917693;-146;0,3465481;-0,3084736;-9,819983;39,44229;49,89624;9;1;1;0;0;36;802146266;0;0;0;0;4294967295;3750000128;6267;18000000;550724750;12;0;471;-223;4;-0,02297072;0,2641548;-0,294988;0,735893;1,733031E+07;173,3867;1081343
1,809058;2,233066;-146;0,3537331;-0,3279886;-9,797478;39,44229;49,89624;9;1;1;0;0;37;82146000;0;0;0;0;4294967295;3750000128;6287;18000000;550724750;12;0;475;-229;4;-0,01934132;0,2634832;-0,2992868;0,7388039;1,733031E+07;173,3867;1081343
1,872273;2,292675;-147;0,3759165;-0,3256216;-9,829168;39,46243;49,97253;9;1;1;0;0;37;342146066;0;0;0;0;4294967295;3750000128;6307;18000000;550725000;12;0;479;-234;4;-0,01667968;0,2624143;-0,3026579;0,7432225;1,733031E+07;173,3867;1081343
1,712304;2,02825;-147;0,4638424;-0,3255739;-9,862648;39,46243;49,97253;9;1;1;0;0;37;662146133;0;0;0;0;4294967295;3750000128;6346;18000000;550725500;12;0;484;-240;4;-0,0138513;0,2645548;-0,305714;0,7476875;1,733031E+07;173,3867;1081343
1,911783;2,290313;-147;0,4442501;-0,3231134;-9,85063;39,48257;49,97253;9;1;1;0;0;37;922145933;0;0;0;0;4294967295;3750000128;6366;18000000;550725750;12;0;488;-245;4;-0,008369478;0,2652014;-0,308156;0,7522079;1,733031E+07;173,3867;1081343
1,671053;1,965386;-147;0,4048786;-0,2495537;-9,840208;39,45236;49,97253;9;1;1;0;0;38;482146000;0;0;0;0;4294967295;3750000128;6405;18000000;550726250;12;0;496;-256;5;-0,003437846;0,2702818;-0,3122159;0,7598549;1,733031E+07;173,3867;1081343
1,687783;1,979139;-147;0,3488436;-0,276577;-9,820595;39,46243;49,89624;9;1;1;0;0;38;742146333;0;0;0;0;4294967295;3750000128;6425;18000000;550726500;12;0;500;-261;5;-0,002852973;0,272459;-0,3144909;0,7645073;1,733031E+07;173,3867;1081343
1,64892;1,943967;-147;0,3463078;-0,278985;-9,808321;39,46747;49,89624;9;1;1;0;0;39;22146000;0;0;0;0;4294967295;3750000128;6444;18000000;550726750;12;0;504;-267;5;-0,001283028;0,2748527;-0,316329;0,7692044;1,733031E+07;173,3867;1081343
1,626829;1,911822;-148;0,3416615;-0,2888908;-9,827767;39,48761;49,97253;9;1;1;0;0;39;522146066;0;0;0;0;4294967295;3750000128;6483;18000000;550727250;12;0;511;-278;5;0,001953733;0,275851;-0,320611;0,7771403;1,733031E+07;173,3867;1081343
1,690331;1,920802;-148;0,3366718;-0,286396;-9,815614;39,48761;49,97253;9;1;1;0;0;40;342146066;0;0;0;0;4294967295;3750000128;6540;18000000;550728250;12;0;523;-296;5;0,005868906;0,2821336;-0,330629;0,7901193;1,733031E+07;173,3867;1081343
1,68314;1,9358;-148;0,3292208;-0,2569647;-9,813818;39,51782;49,97253;9;1;1;0;0;40;682146133;0;0;0;0;4294967295;3750000128;6578;18000000;550728500;12;0;527;-303;5;0,006573216;0,285993;-0,3341252;0,7950795;1,733031E+07;173,3867;1081343
2,076068;2,487964;-148;0,322154;-0,4186668;-9,759223;39,49768;49,97253;9;1;1;0;0;40;942146200;0;0;0;0;4294967295;3750000128;6597;18000000;550728750;12;0;531;-309;5;0,006762904;0,2849098;-0,3383683;0,8000928;1,733031E+07;173,3867;1081343
1,742506;2,057888;-149;0,3465719;-0,3035889;-9,82498;39,49265;49,97253;9;1;1;0;0;41;742146133;0;0;0;0;4294967295;3750000128;6654;18000000;550729500;12;0;543;-328;6;0,007643965;0,2999814;-0,3460616;0,8137629;1,733031E+07;173,3867;1081343
1,705478;2,05169;-149;0,3583632;-0,283802;-9,793413;39,49265;49,97253;9;1;1;0;0;42;362146133;0;0;0;0;4294967295;3750000128;6710;18000000;550730250;12;0;552;-343;6;0,008632434;0,3052519;-0,3522281;0,8242987;1,733031E+07;173,3867;1081343
1,71993;2,058139;-150;0,3488626;-0,291276;-9,815403;39,50272;49,97253;9;1;1;0;0;42;602146400;0;0;0;0;4294967295;3750000128;6729;18000000;550730500;12;0;555;-349;6;0,008517205;0,3061615;-0,3550194;0,8296761;1,733031E+07;173,3867;1081343
1,733796;2,046854;-150;0,3609295;-0,2838583;-9,808087;39,50272;49,97253;9;1;1;0;0;42;902146200;0;0;0;0;4294967295;3750000128;6747;18000000;550730750;12;0;560;-356;6;0,008213402;0,3099581;-0,3587711;0,8351344;1,733031E+07;173,3867;1081343
1,717738;2,032142;-150;0,3316946;-0,2765627;-9,808505;39,51782;49,97253;9;1;1;0;0;43;162146266;0;0;0;0;4294967295;3750000128;6766;18000000;550731000;12;0;563;-363;6;0,007935616;0,3125289;-0,3614461;0,8388213;1,733031E+07;173,3867;1081343
1,73805;2,040534;-150;0,3633204;-0,2838316;-9,803166;39,49265;49,97253;9;1;1;0;0;43;442146200;0;0;0;0;4294967295;3750000128;6784;18000000;550731250;12;0;567;-370;6;0,008442058;0,314485;-0,3634888;0,8444291;1,733031E+07;173,3867;1081343
1,759433;2,032318;-150;0,3534851;-0,2813597;-9,793507;39,51279;49,97253;9;1;1;0;0;43;742146200;0;0;0;0;4294967295;3750000128;6803;18000000;550731500;12;0;572;-377;6;0,009314811;0,3178419;-0,3671599;0,850137;1,733031E+07;173,3867;1081343
1,710562;1,956329;-151;0,2294703;-0,9914608;-9,986362;39,51782;50,04883;9;1;1;0;0;44;602146200;0;0;0;0;4294967295;3750000384;6876;18000000;550732500;12;0;585;-400;7;0,002471907;0,3175797;-0,3708997;0,8677859;1,733031E+07;173,3867;1081343
1,6348;1,890115;-151;0,3266287;-0,2666893;-9,791598;39,52286;50,04883;9;1;1;0;0;45;122146266;0;0;0;0;4294967295;3750000384;6912;18000000;550733000;12;0;593;-414;7;0,009442941;0,3432971;-0,375803;0,8799253;1,733031E+07;173,3867;1081343
1,610224;1,89069;-152;0,3007965;-0,2769747;-9,889635;39,53293;49,97253;9;1;1;0;0;45;422146266;0;0;0;0;4294967295;3750000384;6930;18000000;550733250;12;0;597;-423;7;0,009591863;0,3476298;-0,3793099;0,8883603;1,733031E+07;173,3867;1081343
1,689486;2,049739;-152;0,3364563;-0,2985373;-9,785975;39,52286;49,97253;9;1;1;0;0;45;722146266;0;0;0;0;4294967295;3750000384;6948;18000000;550733500;12;0;602;-431;7;0,008702934;0,3500105;-0,3824874;0,896825;1,733031E+07;173,3867;1081343
1,605137;1,93596;-152;0,3411264;-0,2788506;-9,774072;39,48761;49,97253;9;1;1;0;0;46;22146333;0;0;0;0;4294967295;3750000384;6966;18000000;550733750;12;0;606;-440;7;0,008319451;0,3533083;-0,3849941;0,9049199;1,733031E+07;173,3867;1081343
1,615848;1,92566;-152;0,3414164;-0,2838802;-9,80337;39,51279;49,97253;9;1;1;0;0;46;282146400;0;0;0;0;4294967295;3750000384;6984;18000000;550734000;12;0;610;-447;7;0,007795748;0,3560019;-0,3879421;0,9103499;1,733031E+07;173,3867;1081343
1,656928;2,429318;-156;0,8960247;-1,158788;-9,866564;39,48761;50,04883;9;1;1;0;0;46;522146266;0;0;0;0;4294967295;3750000384;7002;18000000;550734250;12;0;614;-454;7;0,008820352;0,3430943;-0,3574438;0,9154067;1,733031E+07;173,3867;1081343
0,5075261;0,2401873;-155;0,00255394;-0,03219414;-9,867881;39,51279;50,12512;9;1;1;0;0;46;782146333;0;0;0;0;4294967295;3750000384;7020;18000000;550734500;12;0;616;-461;7;-0,01617013;0,3652164;-0,3501995;0,921589;1,733031E+07;173,3867;1081343
0,532846;0,1801907;-156;-1,483582;0,3714876;-9,37528;39,54803;50,12512;9;1;1;0;0;47;362146266;0;0;0;0;4294967295;3750000384;7055;18000000;550735000;12;0;624;-479;8;-0,02773877;0,3762401;-0,3520779;0,9382428;1,733031E+07;173,3867;1081343
0,6126953;0,2848127;-155;0,06074619;-0,09072208;-9,814726;39,55307;50,04883;9;1;1;0;0;47;642146200;0;0;0;0;4294967295;3750000384;7091;18000000;550735500;12;0;628;-487;8;-0,005328977;0,3798895;-0,3602498;0,9465961;1,733031E+07;173,3867;1081343
0,6148428;0,2117829;-156;0,06557083;-0,08089924;-9,814876;39,51782;50,04883;9;1;1;0;0;48;522146333;0;0;0;0;4294967295;3750000384;7143;18000000;550736250;12;0;641;-515;8;0,004317248;0,3935673;-0,3701675;0,9669018;1,733031E+07;173,3867;1081343
0,6544454;0,2200399;-156;0,0607605;-0,07848835;-9,822319;39,51279;50,04883;9;1;1;0;0;48;822146133;0;0;0;0;4294967295;3750000384;7178;18000000;550736750;12;0;645;-525;8;0,009961784;0,3989461;-0,3732327;0,9717614;1,733031E+07;173,3867;1081343
0,6714709;0,2192344;-156;0,06564522;-0,0980711;-9,814534;39,55307;50,04883;9;1;1;0;0;49;62146333;0;0;0;0;4294967295;3750000384;7178;18000000;550736750;12;0;649;-533;8;0,01340426;0,4041052;-0,3764094;0,9750555;1,733031E+07;173,3867;1081343
0,6526427;0,1997565;-156;0,05841351;-0,09322166;-9,824498;39,55307;50,04883;9;1;1;0;0;49;342146333;0;0;0;0;4294967295;3750000384;7196;18000000;550737000;12;0;653;-543;8;0,01787648;0,4108677;-0,3792143;0,9800755;1,733031E+07;173,3867;1081343
0,6691281;0,2148395;-156;0,05838108;-0,09075928;-9,822098;39,52286;50,04883;9;1;1;0;0;49;662146266;0;0;0;0;4294967295;3750000384;7230;18000000;550737500;12;0;657;-554;8;0,02336553;0,4177462;-0,3825609;0,985186;1,733031E+07;173,3867;1081343
0,6976658;0,2126058;-157;0,03427505;-0,1129522;-9,836581;39,543;50,04883;9;1;1;0;0;50;2146200;0;0;0;0;4294967295;3750000384;7247;18000000;550737750;12;0;661;-567;9;0,0289021;0,427119;-0,3868049;0,9921321;1,733031E+07;173,3867;1081343
0,6689507;0,2009949;-157;0,06581211;-0,1054916;-9,829086;39,55811;50,04883;9;1;1;0;0;50;582146333;0;0;0;0;4294967295;3750000384;7282;18000000;550738250;12;0;669;-588;9;0,03723225;0,4435626;-0,3936551;1,001013;1,733031E+07;173,3867;1081343
0,6955513;0,2103261;-157;0,04613495;-0,08340549;-9,817458;39,55307;50,04883;9;1;1;0;0;50;842146200;0;0;0;0;4294967295;3750000384;7316;18000000;550738750;12;0;672;-598;9;0,04095548;0,4504986;-0,3971771;1,006439;1,733031E+07;173,3867;1081343
0,6892563;0,2197895;-157;0,04619026;-0,08587933;-9,822309;39,57321;50,04883;9;1;1;0;0;51;102146266;0;0;0;0;4294967295;3750000384;7333;18000000;550739000;12;0;675;-609;9;0,04470654;0,4583502;-0,3999825;1,011935;1,733031E+07;173,3867;1081343
0,6516683;0,2207185;-157;0,05103302;-0,09564877;-9,814718;39,53796;50,04883;9;1;1;0;0;51;362146466;0;0;0;0;4294967295;3750000384;7333;18000000;550739000;12;0;678;-619;9;0,04800848;0,4658771;-0,4025443;1,015636;1,733031E+07;173,3867;1081343
0,6333326;0,2166244;-158;0,06317043;-0,08336735;-9,817299;39,53293;50,04883;9;1;1;0;0;51;902146133;0;0;0;0;4294967295;3750000384;7384;18000000;550739750;12;0;685;-642;9;0,05532148;0,4789531;-0,4080172;1,026901;1,733031E+07;173,3867;1081343
0,6437686;0,2192304;-158;0,06084538;-0,09811306;-9,821928;39,54803;50,04883;9;1;1;0;0;52;522146266;0;0;0;0;4294967295;3750000384;7418;18000000;550740250;12;0;692;-668;10;0,062903;0,4933474;-0,4153454;1,038393;1,733031E+07;173,3867;1064959
0,6656192;0,2469339;-158;0,04631233;-0,09327984;-9,831961;39,52789;50,04883;9;1;1;0;0;52;782146333;0;0;0;0;4294967295;3750000384;7435;18000000;550740500;12;0;695;-680;10;0,0655349;0,4998158;-0,4193813;1,042269;1,733031E+07;173,3867;1064959
0,6684257;0,2538123;-158;0,05585766;-0,09072208;-9,812323;39,52789;50,04883;9;1;1;0;0;53;62146466;0;0;0;0;4294967295;3750000384;7452;18000000;550740750;12;0;698;-692;10;0,06832383;0,5077419;-0,4218827;1,048124;1,733031E+07;173,3867;1064959
0,7211435;0,2530381;-159;0,05834675;-0,09319115;-9,81715;39,54803;50,04883;9;1;1;0;0;53;642146266;0;0;0;0;4294967295;3750000384;7502;18000000;550741500;12;0;704;-719;10;0,07126409;0,5253066;-0,4296924;1,059965;1,733031E+07;173,3867;1064959
0,7465826;0,2406517;-159;0,05112457;-0,09079456;-9,827065;39,53796;50,04883;9;1;1;0;0;54;262146266;0;0;0;0;4294967295;3750000384;7535;18000000;550742000;12;0;711;-748;10;0,07346693;0,5503288;-0,4374329;1,071966;1,733031E+07;173,3867;1064959
0,7386878;0,2265504;-159;0,04864597;-0,09078026;-9,822188;39,52286;50,04883;9;1;1;0;0;54;542146266;0;0;0;0;4294967295;3750000384;7552;18000000;550742250;12;0;715;-762;10;0,07428613;0,5608312;-0,44151;1,078019;1,733031E+07;173,3867;1064959
0,7582389;0,2217473;-159;0,04370975;-0,09565449;-9,812337;39,56818;50,04883;9;1;1;0;0;54;862146266;0;0;0;0;4294967295;3750000640;7585;18000000;550742750;12;0;718;-779;11;0,07731602;0,5738381;-0,4458302;1,084105;1,733031E+07;173,3867;1064959
0,7485535;0,2197493;-160;0,05110168;-0,09078407;-9,824615;39,54803;50,04883;9;1;1;0;0;55;422146133;0;0;0;0;4294967295;3750000640;7617;18000000;550743250;12;0;725;-808;11;0,08207032;0,5975309;-0,4525026;1,096363;1,733031E+07;173,3867;1064959
0,7629593;0,2183371;-160;0,04615498;-0,09320736;-9,814814;39,55811;50,04883;9;1;1;0;0;55;982146333;0;0;0;0;4294967295;3750000640;7650;18000000;550743750;12;0;731;-838;11;0,08766913;0,6222537;-0,4585337;1,106659;1,733031E+07;173,3867;1064959
0,7378723;0,2197963;-160;0,06075859;-0,08338356;-9,819771;39,57321;50,04883;9;1;1;0;0;56;302146133;0;0;0;0;4294967295;3750000640;7683;18000000;550744250;12;0;735;-856;11;0,09002358;0,6362364;-0,4619229;1,114939;1,733031E+07;173,3867;1064959
0,7595506;0,2917593;-161;0,03408909;-0,08593655;-9,82977;39,57321;50,04883;9;1;1;0;0;58;62146266;0;0;0;0;4294967295;3750000640;7780;18000000;550745750;12;0;756;-963;12;0,09415172;0,7129951;-0,4847369;1,150482;1,733031E+07;173,3867;1064959
0,7484977;0,2282353;-162;0,07053757;-0,08827877;-9,822033;39,59335;50,12512;9;1;1;0;0;59;282146266;0;0;0;0;4294967295;3750000640;7860;18000000;550747000;12;0;772;-1044;13;0,0911568;0,7696142;-0,4974267;1,175815;1,733031E+07;173,3867;1064959
0,7463002;0,2166806;-162;0,05337906;-0,09070683;-9,807446;39,59335;50,04883;9;1;1;0;0;59;582146333;0;0;0;0;4294967295;3750000640;7876;18000000;550747250;12;0;776;-1065;13;0,09241289;0,783887;-0,5012816;1,182173;1,733031E+07;173,3867;1064959
0,7611851;0,2253832;-162;0,04383564;-0,08347225;-9,832177;39,58328;50,04883;9;1;1;0;0;59;842146333;0;0;0;0;4294967295;3750000640;7907;18000000;550747750;12;0;780;-1083;13;0,09350448;0,796301;-0,5048947;1,188539;1,733031E+07;173,3867;1064959
0,7596153;0,2209835;-162;0,05829144;-0,08582115;-9,814846;39,59335;50,12512;13;5;18;8;58;53;244895336;0;0;0;0;4294967295;3750000640;7923;18000000;550748000;12;0;785;-1108;13;0,09554011;0,8131539;-0,5093977;1,194913;1,733031E+07;173,3867;1327103
0,7650052;0,2528221;-162;0,04619217;-0,076087;-9,827403;39,57825;50,12512;13;5;18;8;58;53;614966736;0;0;0;0;4294967295;3750000640;7939;18000000;550748250;12;0;789;-1131;13;0,09673436;0,8280428;-0,5137402;1,203426;1,733031E+07;173,3867;1327103
0,7539679;0,2226266;-163;0,04622078;-0,09813499;-9,819614;39,56314;50,12512;13;5;18;8;58;54;164952536;0;0;0;0;4294967295;3750000640;7986;18000000;550749000;12;0;797;-1176;13;0,09950878;0,8554309;-0,5208697;1,216225;1,733031E+07;173,3867;1327103
0,763932;0,2282514;-163;0,04131317;-0,0785408;-9,824949;39,57825;50,12512;13;5;18;8;58;54;434801402;0;0;0;0;4294967295;3750000640;8002;18000000;550749250;12;0;802;-1201;14;0,100076;0,870532;-0,5247433;1,22264;1,733031E+07;173,3867;1327103
0,7511656;0,2064202;-163;0,04129982;-0,08587933;-9,819903;39,57825;50,12512;13;5;18;8;58;54;764900802;0;0;0;0;4294967295;3750000640;8017;18000000;550749500;12;0;806;-1223;14;0,1010256;0,8846014;-0,5276631;1,229065;1,733031E+07;173,3867;1327103
0,7359254;0,1360483;-164;0,03885651;-0,08343124;-9,819975;39,59839;50,12512;13;5;18;8;58;56;304932630;0;0;0;0;4294967295;3750000896;8110;18000000;550751000;12;0;826;-1351;15;0,1230547;0,9602157;-0,5466281;1,261404;1,733031E+07;173,3867;1327103
0,7993048;0,1179779;-165;0,04629326;-0,07858276;-9,837152;39,58328;50,12512;13;5;18;8;58;57;244979096;0;0;0;0;4294967295;3750000896;8172;18000000;550752000;12;0;838;-1435;15;0,1390298;1,002845;-0,5591799;1,281439;1,733031E+07;173,3867;1327103
0,8236502;0,08951891;-165;0,04868221;-0,07855606;-9,832231;39,58328;50,12512;13;5;18;8;58;57;844942230;0;0;0;0;4294967295;3750000896;8202;18000000;550752500;12;0;844;-1490;15;0,1497498;1,036905;-0,5672085;1,294984;1,733031E+07;173,3867;1327103
0,8234074;0,08004301;-165;0,04865646;-0,08833694;-9,824686;39,57825;50,12512;13;5;18;8;58;58;95002363;0;0;0;0;4294967295;3750000896;8217;18000000;550752750;12;0;846;-1509;16;0,1543623;1,04814;-0,5700058;1,299513;1,733031E+07;173,3867;1327103
0,7865149;0,08885873;-165;0,04851341;-0,07602978;-9,815132;39,55811;50,12512;13;5;18;8;58;58;325009163;0;0;0;0;4294967295;3750000896;8233;18000000;550753000;12;0;849;-1536;16;0,1629504;1,063379;-0,5725408;1,306318;1,733031E+07;173,3867;1327103
0,8498847;0,1020399;-166;0,06545925;-0,08084679;-9,802628;39,57321;50,12512;13;5;18;8;58;59;14943496;0;0;0;0;4294967295;3750000896;8278;18000000;550753750;12;0;855;-1599;16;0,1782613;1,098426;-0,5817721;1,32225;1,733031E+07;173,3867;1327103
0,8468716;0,1021788;-166;0,04865932;-0,07854557;-9,829782;39,58832;50,12512;13;5;18;8;58;59;264939096;0;0;0;0;4294967295;3750000896;8293;18000000;550754000;12;0;857;-1629;16;0,1834628;1,118055;-0,585791;1,329097;1,733031E+07;173,3867;1327103
0,8434651;0,104753;-166;0,0437336;-0,09076977;-9,817334;39,57321;50,12512;13;5;18;8;58;59;555017297;0;0;0;0;4294967295;3750000896;8308;18000000;550754250;12;0;859;-1654;16;0,1883733;1,133063;-0,5884501;1,333667;1,733031E+07;173,3867;1327103
0,8443451;0,07653576;-166;0,04377842;-0,09079075;-9,822233;39,56818;50,12512;13;5;18;8;58;59;804995163;0;0;0;0;4294967295;3750000896;8323;18000000;550754500;12;0;861;-1685;17;0,1950521;1,15121;-0,5919591;1,340527;1,733031E+07;173,3867;1327103
0,834127;0,06786334;-166;0,06065559;-0,09557533;-9,80238;39,58832;50,12512;13;5;18;8;59;0;134982096;0;0;0;0;4294967295;3750000896;8338;18000000;550754750;12;0;863;-1715;17;0,202044;1,168649;-0,5941333;1,347396;1,733031E+07;173,3867;1327103
0,8458456;0,09843131;-166;0,04612446;-0,08095264;-9,817507;39,57825;50,12512;13;5;18;8;59;0;574848563;0;0;0;0;4294967295;3750000896;8368;18000000;550755250;12;0;867;-1774;17;0,2150006;1,202783;-0,5997391;1,358859;1,733031E+07;173,3867;1327103
0,8383105;0,1038449;-167;0,05115891;-0,08346653;-9,834559;39,57321;50,12512;13;5;18;8;59;0;955009829;0;0;0;0;4294967295;3750000896;8398;18000000;550755750;12;0;868;-1805;17;0,2208197;1,220386;-0,602724;1,365744;1,733031E+07;173,3867;1327103
0,8290702;0,0985112;-167;0,04369259;-0,07116604;-9,822623;39,58832;50,12512;13;5;18;8;59;1;165007763;0;0;0;0;4294967295;3750000896;8413;18000000;550756000;12;0;870;-1834;17;0,2252783;1,237004;-0,6059602;1,372632;1,733031E+07;173,3867;1327103
0,8407385;0,1132597;-167;0,04623413;-0,09079552;-9,82466;39,58328;50,12512;13;5;18;8;59;1;474979763;0;0;0;0;4294967295;3750001152;8428;18000000;550756250;12;0;871;-1864;17;0,2295324;1,253225;-0,609313;1,377226;1,733031E+07;173,3867;1327103
0,8299282;0,1411513;-167;0,05340195;-0,08582115;-9,812442;39,59335;50,12512;13;5;18;8;59;1;664994563;0;0;0;0;4294967295;3750001152;8443;18000000;550756500;12;0;872;-1892;18;0,2327905;1,267774;-0,6102404;1,384118;1,733031E+07;173,3867;1327103
0,8220438;0,1391591;-167;0,04363537;-0,07848358;-9,812679;39,58328;50,12512;13;5;18;8;59;2;14943563;0;0;0;0;4294967295;3750001152;8457;18000000;550756750;12;0;873;-1927;18;0,2359889;1,285736;-0,6121877;1,391012;1,733031E+07;173,3867;1327103
0,8225899;0,1484972;-168;0,05593395;-0,09810257;-9,817075;39,57825;50,12512;13;5;18;8;59;2;514783963;0;0;0;0;4294967295;3750001152;8487;18000000;550757250;12;0;876;-1999;18;0,2435386;1,321733;-0,6178082;1,4048;1,733031E+07;173,3867;1327103
0,8282482;0,1340198;-168;0,04136848;-0,08101463;-9,8298;39,58328;50,12512;13;5;18;8;59;2;824994563;0;0;0;0;4294967295;3750001152;8502;18000000;550757500;12;0;877;-2031;18;0,2459056;1,337878;-0,6199384;1,409396;1,733031E+07;173,3867;1327103
0,8211184;0,1270254;-168;0,04852104;-0,09806633;-9,804894;39,58832;50,12512;13;5;18;8;59;3;174990296;0;0;0;0;4294967295;3750001152;8516;18000000;550757750;12;0;878;-2068;18;0,2497499;1,357192;-0,6225019;1,416288;1,733031E+07;173,3867;1327103
0,7994623;0,1221065;-168;0,05575085;-0,06619072;-9,812811;39,58832;50,12512;13;5;18;8;59;3;658642199;0;0;0;0;4294967295;3750001152;8560;18000000;550758494;12;0;879;-2136;19;0,2566841;1,389103;-0,62709;1,430066;1,733031E+07;173,3867;1327103
0,8083738;0,134787;-168;0,04359245;-0,06867123;-9,812874;39,59335;50,12512;13;5;18;8;59;4;34768469;0;0;0;0;4294967295;3750001408;8575;18000000;550758750;12;0;880;-2177;19;0,2596114;1,406525;-0,6306247;1,436949;1,733031E+07;173,3867;1327103
0,7814108;0,1289546;-168;0,04124451;-0,08340549;-9,815053;39,58832;50,12512;13;5;18;8;59;4;244720881;0;0;0;0;4294967295;3750001152;8590;18000000;550759000;12;0;880;-2211;19;0,262024;1,42074;-0,6320847;1,441537;1,733031E+07;173,3867;1327103
0,772081;0,1312777;-169;0,05104733;-0,08341503;-9,822311;39,57321;50,12512;13;5;18;8;59;4;534538946;0;0;0;0;4294967295;3750001408;8605;18000000;550759250;12;0;880;-2256;19;0,2664419;1,43817;-0,6338171;1,450706;1,733031E+07;173,3867;1327103
0,7888036;0,1436147;-169;0,07049084;-0,1029444;-9,809492;39,57321;50,12512;13;5;18;8;59;4;844686279;0;0;0;0;4294967295;3750001408;8619;18000000;550759500;12;0;881;-2290;20;0,2695695;1,451896;-0,6355484;1,455288;1,733031E+07;173,3867;1327103
0,7937188;0,1318143;-169;0,04114532;-0,07601452;-9,807852;39,56818;50,12512;13;5;18;8;59;5;95026213;0;0;0;0;4294967295;3750001408;8634;18000000;550759750;12;0;881;-2330;20;0,2721594;1,468165;-0,6383201;1,462158;1,733031E+07;173,3867;1327103
0,7880726;0,1401567;-169;0,05836105;-0,0760603;-9,82729;39,57321;50,12512;13;5;18;8;59;5;454693280;0;0;0;0;4294967295;3750001408;8662;18000000;550760250;12;0;881;-2366;20;0,2747286;1,482627;-0,6402553;1,469023;1,733031E+07;173,3867;1327103
0,7816492;0,141376;-169;0,0632925;-0,0858717;-9,829498;39,58328;50,12512;13;5;18;8;59;5;684699546;0;0;0;0;4294967295;3750001408;8677;18000000;550760500;12;0;881;-2404;20;0,2767681;1,498067;-0,642767;1,475883;1,733031E+07;173,3867;1327103
0,7641;0,1426985;-169;0,04620075;-0,08833313;-9,82226;39,58832;50,12512;13;5;18;8;59;5;935035013;0;0;0;0;4294967295;3750001408;8691;18000000;550760750;12;0;881;-2446;20;0,2802237;1,514787;-0,6447247;1,482737;1,733031E+07;173,3867;1327103
0,770686;0,1725448;-170;0,05097866;-0,08827972;-9,812416;39,57825;50,12512;13;5;18;8;59;6;204699014;0;0;0;0;4294967295;3750001152;8706;18000000;550761000;12;0;880;-2476;20;0,2816283;1,525993;-0,6465824;1,487305;1,733031E+07;173,3867;1327103
0,7908189;0,2276956;-170;0,05095577;-0,09316444;-9,80742;39,56314;50,12512;13;5;18;8;59;6;954873246;0;0;0;0;4294967295;3750001664;8749;18000000;550761750;12;0;880;-2590;21;0,2795561;1,566542;-0,654226;1,505556;1,733031E+07;173,3867;1327103
0,8010741;0,2022954;-170;0,0462141;-0,08099365;-9,827305;39,56314;50,12512;13;5;18;8;59;7;264592580;0;0;0;0;4294967295;3750001664;8763;18000000;550762000;12;0;879;-2627;21;0,2788785;1,580638;-0,6573657;1,512392;1,733031E+07;173,3867;1327103
0,8098148;0,198744;-171;0,04362488;-0,07113457;-9,815274;39,57321;50,12512;13;5;18;8;59;7;954494846;0;0;0;0;4294967295;3750001408;8806;18000000;550762750;12;0;878;-2721;21;0,2781955;1,61691;-0,6622086;1,526055;1,733031E+07;173,3867;1327103
0,7961367;0,2125029;-171;0,06064701;-0,08333111;-9,807524;39,59839;50,12512;13;5;18;8;59;8;164535647;0;0;0;0;4294967295;3750001408;8820;18000000;550763000;12;0;878;-2760;22;0,2780586;1,63262;-0,6636447;1,532884;1,733031E+07;173,3867;1327103
0,7540219;0,2006694;-171;0,04855824;-0,07605076;-9,820031;39,58328;50,12512;13;5;18;8;59;8;424535714;0;0;0;0;4294967295;3750001408;8820;18000000;550763000;12;0;877;-2799;22;0,2758219;1,647204;-0,6646135;1,537435;1,733031E+07;173,3867;1327103
0,7755595;0,2083192;-171;0,03887939;-0,08344173;-9,822425;39,56818;50,12512;13;5;18;8;59;8;664553577;0;0;0;0;4294967295;3750001408;8848;18000000;550763500;12;0;877;-2835;22;0,2742942;1,658789;-0,6674377;1,544261;1,733031E+07;173,3867;1327103
0,755865;0,2001942;-171;0,0485239;-0,08337879;-9,812536;39,57825;50,12512;13;5;18;8;59;9;14527243;0;0;0;0;4294967295;3750001664;8862;18000000;550763750;12;0;876;-2881;22;0,2731154;1,6747;-0,6697937;1,551089;1,733031E+07;173,3867;1327103
0,738644;0,2050768;-171;0,02671337;-0,06878185;-9,830179;39,58832;50,12512;13;5;18;8;59;9;184534378;0;0;0;0;4294967295;3750001408;8876;18000000;550764000;12;0;876;-2915;22;0,2717918;1,684822;-0,6710967;1,555641;1,733031E+07;173,3867;1327103
0,7211542;0,1959884;-172;0,03876877;-0,07849407;-9,812725;39,58832;50,12512;13;5;18;8;59;9;724485109;0;0;0;0;4294967295;3750001664;8904;18000000;550764500;12;0;875;-2999;23;0,2687504;1,709819;-0,6755212;1,567027;1,733031E+07;173,3867;1327103
0,7400614;0,1820136;-172;0,0412674;-0,08341599;-9,817503;39,57321;50,12512;13;5;18;8;59;10;34573310;0;0;0;0;4294967295;3750001408;8918;18000000;550764750;12;0;874;-3039;23;0,2679713;1,721472;-0,6772065;1,573866;1,733031E+07;173,3867;1327103
0,7332075;0,1899797;-172;0,04361343;-0,07847309;-9,810229;39,58328;50,12512;13;5;18;8;59;10;244556044;0;0;0;0;4294967295;3750001664;8932;18000000;550765000;12;0;873;-3080;23;0,2669653;1,734121;-0,6789446;1,578428;1,733031E+07;173,3867;1327103
0,7227308;0,1830935;-172;0,04859924;-0,1005507;-9,812195;39,61349;50,12512;13;5;18;8;59;10;454390576;0;0;0;0;4294967295;3750001408;8946;18000000;550765250;12;0;873;-3122;23;0,2664686;1,74619;-0,6812587;1,585278;1,733031E+07;173,3867;1327103
0,6971534;0,1753105;-172;0,04375648;-0,08588409;-9,82233;39,58832;50,12512;13;5;18;8;59;10;744540710;0;0;0;0;4294967295;3750001408;8960;18000000;550765500;12;0;872;-3160;23;0,2657104;1,756936;-0,6818274;1,589849;1,733031E+07;173,3867;1327103
0,6867175;0,1814145;-172;0,03166866;-0,07860374;-9,834839;39,58328;50,12512;13;5;18;8;59;11;344491310;0;0;0;0;4294967295;3750001664;8988;18000000;550766000;12;0;870;-3257;24;0,2644571;1,779739;-0,6877383;1,603593;1,733031E+07;173,3867;1327103
0,7198861;0,1768551;-173;0,03412056;-0,09819221;-9,827076;39,58832;50,12512;13;5;18;8;59;11;654545243;0;0;0;0;4294967295;3750001664;9002;18000000;550766250;12;0;869;-3299;24;0,264267;1,789775;-0,6925704;1,610486;1,733031E+07;173,3867;1327103
0,7254597;0,2242475;-173;0,04610252;-0,07604599;-9,817605;39,60846;50,12512;13;5;18;8;59;12;784487376;0;0;0;0;4294967295;3750001664;9071;18000000;550767500;12;0;863;-3494;25;0,2638898;1,841188;-0,7062318;1,638257;1,733031E+07;173,3867;1327103
0,6918315;0,2588089;-174;0,04618263;-0,06873894;-9,829999;39,58832;50,12512;13;5;18;8;59;14;534438994;0;0;0;0;4294967295;3750001920;9167;18000000;550769250;12;0;853;-3802;26;0,2371949;1,9171;-0,7281108;1,680826;1,733031E+07;173,3867;1327103
0,6686004;0,244336;-174;0,03651142;-0,08837414;-9,827249;39,59335;50,12512;13;5;18;8;59;14;844655394;0;0;0;0;4294967295;3750001664;9181;18000000;550769500;12;0;852;-3848;26;0,2324664;1,9267;-0,730271;1,685649;1,733031E+07;173,3867;1327103
0,6956265;0,2360394;-175;0,03883553;-0,07852554;-9,820073;39,59839;50,12512;13;5;18;8;59;15;134651194;0;0;0;0;4294967295;3750001920;9194;18000000;550769750;12;0;851;-3890;26;0,2300154;1,934952;-0,7337174;1,692929;1,733031E+07;173,3867;1327103
0,6788219;0,2471207;-175;0,04614735;-0,07606697;-9,822504;39,59839;50,12512;13;5;18;8;59;15;344645062;0;0;0;0;4294967295;3750001920;9208;18000000;550770000;12;0;849;-3936;26;0,2281744;1,944699;-0,7358735;1,697814;1,733031E+07;173,3867;1327103
0,6646566;0,2441182;-175;0,05104828;-0,07851887;-9,824859;39,58832;50,12512;13;5;18;8;59;15;594596794;0;0;0;0;4294967295;3750001920;9222;18000000;550770250;12;0;848;-3971;27;0,223856;1,952219;-0,7378408;1,702726;1,733031E+07;173,3867;1327103
0,65275;0,2590315;-175;0,04603672;-0,07111931;-9,812803;39,59335;50,20142;13;5;18;8;59;16;164554642;0;0;0;0;4294967295;3750001920;9262;18000000;550771000;12;0;845;-4081;27;0,2153605;1,972532;-0,7451501;1,720144;1,733031E+07;173,3867;1327103
0,6681723;0,2647272;-175;0,05349255;-0,08096695;-9,824786;39,59335;50,20142;13;5;18;8;59;16;424554708;0;0;0;0;4294967295;3750001920;9262;18000000;550771000;12;0;843;-4128;27;0,2108929;1,981086;-0,7486981;1,725192;1,733031E+07;173,3867;1327103
0,669399;0,2531352;-176;0,0485363;-0,07604027;-9,817582;39,58832;50,12512;13;5;18;8;59;16;664546707;0;0;0;0;4294967295;3750002176;9289;18000000;550771500;12;0;842;-4171;27;0,2064967;1,989521;-0,7522392;1,732758;1,733031E+07;173,3867;1327103
0,6497224;0,2719147;-176;0,04614639;-0,08096313;-9,819956;39,59335;50,20142;13;5;18;8;59;17;14604035;0;0;0;0;4294967295;3750001920;9303;18000000;550771750;12;0;840;-4225;28;0,202145;1,999129;-0,7551473;1,739788;1,733031E+07;173,3867;1327103
0,6529627;0,2642636;-176;0,0363903;-0,08097363;-9,817596;39,58832;50,12512;13;5;18;8;59;17;284605370;0;0;0;0;4294967295;3750001920;9316;18000000;550772000;12;0;838;-4284;28;0,195146;2,009495;-0,758988;1,746828;1,733031E+07;173,3867;1327103
0,6536405;0,2677602;-176;0,05098152;-0,07848835;-9,817511;39,59335;50,20142;13;5;18;8;59;17;674669836;0;0;0;0;4294967295;3750001920;9329;18000000;550772250;12;0;836;-4346;28;0,1868077;2,019479;-0,7626103;1,753879;1,733031E+07;173,3867;1327103
0,6361767;0,2678114;-177;0,04847908;-0,08335781;-9,807637;39,59839;50,12512;13;5;18;8;59;18;434492635;0;0;0;0;4294967295;3750002176;9383;18000000;550773250;12;0;831;-4504;29;0,1710553;2,045428;-0,7717798;1,775095;1,733031E+07;173,3867;1327103
0,5992336;0,2584509;-177;0,0509901;-0,08583641;-9,814914;39,59839;50,20142;13;5;18;8;59;18;744606635;0;0;0;0;4294967295;3750002176;9396;18000000;550773500;12;0;830;-4552;29;0,1663382;2,052814;-0,7744023;1,779823;1,733031E+07;173,3867;1327103
0,6061471;0,2602435;-177;0,05830193;-0,08827496;-9,814797;39,61349;50,20142;13;5;18;8;59;19;94659035;0;0;0;0;4294967295;3750002432;9409;18000000;550773750;12;0;828;-4608;29;0,1622287;2,059363;-0,7786802;1,786925;1,733031E+07;173,3867;1327103
0,5890633;0,3008145;-177;0,04859066;-0,08341026;-9,819884;39,59335;50,12512;13;5;18;8;59;19;684658769;0;0;0;0;4294967295;3750002688;9449;18000000;550774500;12;0;825;-4727;30;0,150755;2,073682;-0,7860455;1,803053;1,733031E+07;173,3867;1327103
0,6104121;0,3097251;-177;0,04129791;-0,0956707;-9,814809;39,60846;50,12512;13;5;18;8;59;20;34592302;0;0;0;0;4294967295;3750002432;9462;18000000;550774750;12;0;823;-4784;30;0,1432903;2,079491;-0,7903252;1,809857;1,733031E+07;173,3867;1327103
0,6350641;0,3152069;-178;0,05102348;-0,0883007;-9,817315;39,58328;50,20142;13;5;18;8;59;20;244596970;0;0;0;0;4294967295;3750002176;9476;18000000;550775000;12;0;822;-4833;30;0,1347692;2,08574;-0,7936919;1,814404;1,733031E+07;173,3867;1327103
0,6372825;0,3317239;-178;0,05581474;-0,07601357;-9,815064;39,60342;50,20142;13;5;18;8;59;20;494460169;0;0;0;0;4294967295;3750002176;9489;18000000;550775250;12;0;820;-4889;30;0,1261409;2,094189;-0,7975934;1,821242;1,733031E+07;173,3867;1327103
0,6003027;0,3289136;-178;0,04131222;-0,08343697;-9,822402;39,59335;50,12512;13;5;18;8;59;20;934656569;0;0;0;0;4294967295;3750002432;9515;18000000;550775750;12;0;818;-4954;31;0,1159223;2,103847;-0,8004809;1,830389;1,733031E+07;173,3867;1327103
0,5754068;0,3090534;-178;0,03889084;-0,08099842;-9,824923;39,58328;50,12512;13;5;18;8;59;21;194656569;0;0;0;0;4294967295;3750002432;9515;18000000;550775750;12;0;817;-5003;31;0,1075815;2,109376;-0,8034645;1,834976;1,733031E+07;173,3867;1327103
0,5947425;0,2963866;-178;0,04139137;-0,08102512;-9,832249;39,57321;50,20142;13;5;18;8;59;21;474594702;0;0;0;0;4294967295;3750002432;9541;18000000;550776250;12;0;816;-5057;31;0,09956849;2,114612;-0,8078513;1,841871;1,733031E+07;173,3867;1327103
0,6348542;0,2944344;-179;0,04370308;-0,07361889;-9,822575;39,60342;50,20142;13;5;18;8;59;22;574498568;0;0;0;0;4294967295;3750002688;9594;18000000;550777250;12;0;811;-5287;32;0,07245355;2,14306;-0,8230394;1,869637;1,733031E+07;173,3867;1327103
0,6359624;0,2929257;-179;0,03897762;-0,09572697;-9,82708;39,59839;50,12512;13;5;18;8;59;22;994697850;0;0;0;0;4294967295;3750002688;9620;18000000;550777750;12;0;810;-5349;32;0,06558476;2,152296;-0,8267601;1,876624;1,733031E+07;173,3867;1327103
0,6452187;0,2929752;-179;0,04857063;-0,0736084;-9,82253;39,58832;50,12512;13;5;18;8;59;23;224703784;0;0;0;0;4294967295;3750002432;9633;18000000;550778000;12;0;809;-5404;32;0,05956172;2,159862;-0,8303005;1,883625;1,733031E+07;173,3867;1327103
0,630397;0,2555442;-179;0,02439213;-0,06883907;-9,842449;39,58328;50,12512;13;5;18;8;59;23;534651192;0;0;0;0;4294967295;3750002688;9646;18000000;550778250;12;0;808;-5454;33;0,05272261;2,168047;-0,8330016;1,890643;1,733031E+07;173,3867;1327103
0,6489335;0,2676785;179;0,0437355;-0,08097839;-9,822428;39,57321;50,12512;13;5;18;8;59;23;824655326;0;0;0;0;4294967295;3750002688;9659;18000000;550778500;12;0;807;-5521;33;0,04496294;2,177378;-0,8384277;1,897675;1,733031E+07;173,3867;1327103
0,6316741;0,2483769;179;0,04375744;-0,08098793;-9,824877;39,59335;50,12512;13;5;18;8;59;24;194641459;0;0;0;0;4294967295;3750002688;9672;18000000;550778750;12;0;805;-5584;33;0,03727403;2,187637;-0,8415593;1,904723;1,733031E+07;173,3867;1327103
0,59624;0,2515732;179;0,03651142;-0,08837414;-9,827249;39,59335;50,20142;13;5;18;8;59;24;424655593;0;0;0;0;4294967295;3750002688;9684;18000000;550779000;12;0;804;-5639;33;0,03261368;2,195019;-0,8439854;1,911785;1,733031E+07;173,3867;1327103
0,5784962;0,2269072;179;0,04615879;-0,07852077;-9,822455;39,6286;50,20142;13;5;18;8;59;25;74666593;0;0;0;0;4294967295;3750002688;9723;18000000;550779750;12;0;802;-5758;34;0,02440897;2,209764;-0,85013;1,925952;1,733031E+07;173,3867;1327103
0,5288404;0,2141137;179;0,05829144;-0,08582115;-9,814846;39,59839;50,20142;13;5;18;8;59;25;414660993;0;0;0;0;4294967295;3750002688;9749;18000000;550780250;12;0;800;-5826;34;0,01765454;2,214997;-0,852793;1,935425;1,733031E+07;173,3867;1327103
0,5242886;0,2273683;178;0,05583382;-0,0956068;-9,807325;39,58832;50,20142;13;5;18;8;59;25;684648992;0;0;0;0;4294967295;3750002944;9762;18000000;550780500;12;0;799;-5890;34;0,01425167;2,218503;-0,8565983;1,942545;1,733031E+07;173,3867;1327103
0,5844918;0,1895904;178;0,05344963;-0,07115459;-9,824982;39,61349;50,20142;13;5;18;8;59;26;494459859;0;0;0;0;4294967295;3750002944;9800;18000000;550781250;12;0;795;-6063;35;-0,0007128943;2,228185;-0,8695986;1,961589;1,733031E+07;173,3867;1327103
0,6098675;0,1866831;178;0,03400135;-0,08100033;-9,822518;39,61349;50,20142;13;5;18;8;59;26;934651392;0;0;0;0;4294967295;3750002688;9825;18000000;550781750;12;0;793;-6131;36;-0,004282697;2,234397;-0,8751166;1,97114;1,733031E+07;173,3867;1327103
0,605579;0,1892165;178;0,05353642;-0,08588314;-9,827139;39,60846;50,20142;13;5;18;8;59;27;194651392;0;0;0;0;4294967295;3750002688;9825;18000000;550781750;12;0;791;-6183;36;-0,005679811;2,240528;-0,8780483;1,975922;1,733031E+07;173,3867;1327103
0,6035719;0,2026528;177;0,04130173;-0,076087;-9,824998;39,61349;50,20142;13;5;18;8;59;27;534609726;0;0;0;0;4294967295;3750002944;9851;18000000;550782250;12;0;789;-6252;36;-0,0092871;2,249257;-0,8824274;1,985501;1,733031E+07;173,3867;1327103
0,5942367;0,2168817;177;0,05341339;-0,08337879;-9,814939;39,59335;50,20142;13;5;18;8;59;28;114688992;0;0;0;0;4294967295;3750003200;9876;18000000;550782750;12;0;785;-6370;37;-0,01665431;2,260962;-0,8877984;1,999896;1,733031E+07;173,3867;1327103
0,5854599;0,2278144;177;0,04381275;-0,08346176;-9,829728;39,59335;50,20142;13;5;18;8;59;28;324665927;0;0;0;0;4294967295;3750002944;9889;18000000;550783000;12;0;783;-6423;37;-0,01984704;2,266539;-0,8908297;2,004701;1,733031E+07;173,3867;1327103
0,5771078;0,2121264;177;0,05585957;-0,07603455;-9,819963;39,58832;50,20142;13;5;18;8;59;28;574511526;0;0;0;0;4294967295;3750003200;9901;18000000;550783250;12;0;781;-6485;37;-0,02426423;2,272288;-0,8948275;2,011916;1,733031E+07;173,3867;1327103
0,5669549;0,2116686;177;0,03649139;-0,07857227;-9,829894;39,59335;50,20142;13;5;18;8;59;28;954597925;0;0;0;0;4294967295;3750002944;9927;18000000;550783750;12;0;779;-6542;37;-0,02748163;2,276499;-0,897837;2,019138;1,733031E+07;173,3867;1327103
0,5672449;0,2290422;176;0,04374409;-0,08832741;-9,819832;39,57825;50,20142;13;5;18;8;59;29;164633993;0;0;0;0;4294967295;3750003200;9939;18000000;550784000;12;0;777;-6595;37;-0,03153136;2,280379;-0,900884;2,026367;1,733031E+07;173,3867;1327103
0,5491074;0,2483517;176;0,03888226;-0,0687542;-9,830067;39,61853;50,20142;13;5;18;8;59;30;54671259;0;0;0;0;4294967295;3750003456;9977;18000000;550784750;12;0;770;-6769;38;-0,04487665;2,291604;-0,9100731;2,045674;1,733031E+07;173,3867;1327103
0,5596847;0,2431067;176;0,05350304;-0,0834198;-9,824738;39,59335;50,20142;13;5;18;8;59;30;534493859;0;0;0;0;4294967295;3750003200;10002;18000000;550785250;12;0;765;-6889;39;-0,05507887;2,300023;-0,917486;2,06018;1,733031E+07;173,3867;1327103
0,5752647;0,238703;175;0,04855824;-0,07605076;-9,820031;39,60846;50,20142;13;5;18;8;59;30;954668659;0;0;0;0;4294967295;3750003456;10027;18000000;550785750;12;0;762;-6955;39;-0,0607168;2,304694;-0,9214055;2,067439;1,733031E+07;173,3867;1327103
0,5650792;0,2059581;175;0,05824852;-0,08090496;-9,812494;39,59839;50,20142;13;5;18;8;59;31;164663393;0;0;0;0;4294967295;3750003200;10039;18000000;550786000;12;0;760;-7009;39;-0,06384847;2,309424;-0,9239247;2,0747;1,733031E+07;173,3867;1327103
0,5711003;0,1806281;175;0,0510149;-0,07605553;-9,822458;39,58832;50,20142;13;5;18;8;59;31;474651659;0;0;0;0;4294967295;3750003456;10052;18000000;550786250;12;0;758;-7063;39;-0,06474251;2,313781;-0,9270586;2,079542;1,733031E+07;173,3867;1327103
0,6188785;0,1823793;175;0,0388689;-0,08098888;-9,822474;39,59335;50,20142;13;5;18;8;59;31;704653526;0;0;0;0;4294967295;3750003456;10064;18000000;550786500;12;0;755;-7122;40;-0,06572859;2,318615;-0,9317214;2,086809;1,733031E+07;173,3867;1327103
0,6325265;0,1809983;175;0,03411293;-0,08105183;-9,834766;39,58832;50,20142;13;5;18;8;59;32;264612927;0;0;0;0;4294967295;3750003456;10089;18000000;550787000;12;0;749;-7239;40;-0,07281134;2,332993;-0,9401259;2,101348;1,733031E+07;173,3867;1327103
0,6086434;0,1952884;174;0,05338097;-0,07601929;-9,815086;39,61349;50,20142;13;5;18;8;59;32;514448792;0;0;0;0;4294967295;3750003200;10101;18000000;550787250;12;0;746;-7302;41;-0,07629716;2,341231;-0,9424943;2,108621;1,733031E+07;173,3867;1327103
0,622489;0,1841325;174;0,04849148;-0,07601929;-9,812683;39,60846;50,20142;13;5;18;8;59;32;824651459;0;0;0;0;4294967295;3750003712;10114;18000000;550787500;12;0;743;-7357;41;-0,07893582;2,348244;-0,9460265;2,113472;1,733031E+07;173,3867;1327103
0,6369627;0,1817057;174;0,06075859;-0,08338356;-9,819771;39,57825;50,20142;13;5;18;8;59;33;114652193;0;0;0;0;4294967295;3750003456;10126;18000000;550787750;12;0;740;-7408;41;-0,07954618;2,354128;-0,948782;2,120746;1,733031E+07;173,3867;1327103
0,668164;0,1798436;174;0,05096912;-0,08093071;-9,815011;39,59839;50,20142;13;5;18;8;59;33;414598059;0;0;0;0;4294967295;3750003968;10151;18000000;550788250;12;0;736;-7472;41;-0,08187957;2,362469;-0,9532337;2,128021;1,733031E+07;173,3867;1327103
0,6422968;0,1934851;174;0,06318951;-0,09806538;-9,812107;39,60342;50,20142;13;5;18;8;59;33;674598392;0;0;0;0;4294967295;3750003968;10151;18000000;550788250;12;0;733;-7528;42;-0,08513249;2,370698;-0,9556694;2,132872;1,733031E+07;173,3867;1327103
0,6591137;0,1808119;174;0,04608154;-0,07114029;-9,817702;39,58832;50,20142;13;5;18;8;59;33;914665925;0;0;0;0;4294967295;3750003456;10175;18000000;550788750;12;0;730;-7579;42;-0,08847681;2,3778;-0,9598323;2,140146;1,733031E+07;173,3867;1327103
0,6568453;0,1666015;174;0,05833626;-0,0907383;-9,817199;39,60342;50,20142;13;5;18;8;59;34;164668794;0;0;0;0;4294967295;3750003712;10188;18000000;550789000;12;0;725;-7643;42;-0,09224205;2,387236;-0,9634742;2,14742;1,733031E+07;173,3867;1327103
0,6678852;0,1638894;173;0,04364491;-0,08583164;-9,810082;39,61853;50,20142;13;5;18;8;59;34;324668860;0;0;0;0;4294967295;3750003712;10188;18000000;550789000;12;0;723;-7678;42;-0,09237666;2,39185;-0,9651737;2,149844;1,733031E+07;173,3867;1327103
0,652959;0,1540029;173;0,04602623;-0,06866646;-9,812852;39,6286;50,20142;13;5;18;8;59;35;224597194;0;0;0;0;4294967295;3750003712;10237;18000000;550790000;12;0;710;-7873;43;-0,09843323;2,421482;-0,9763421;2,171656;1,733031E+07;173,3867;1327103
0,6856369;0,1656772;173;0,05348492;-0,06382656;-9,832478;39,62357;50,20142;13;5;18;8;59;35;554665992;0;0;0;0;4294967295;3750003712;10249;18000000;550790250;12;0;705;-7934;43;-0,09954388;2,430301;-0,9813752;2,178924;1,733031E+07;173,3867;1327103
0,6861216;0,1573282;173;0,0462141;-0,07609749;-9,829853;39,61349;50,20142;13;5;18;8;59;35;764647525;0;0;0;0;4294967295;3750003968;10261;18000000;550790500;12;0;701;-7991;44;-0,1006031;2,439087;-0,9846178;2,186188;1,733031E+07;173,3867;1327103
0,69135;0,1540063;172;0,04117966;-0,07847881;-9,810252;39,59839;50,20142;13;5;18;8;59;36;94655126;0;0;0;0;4294967295;3750003712;10273;18000000;550790750;12;0;696;-8053;44;-0,1009394;2,449443;-0,9880683;2,191028;1,733031E+07;173,3867;1327103
0,7169764;0,1635824;172;0,04134655;-0,08100414;-9,82735;39,64874;50,20142;13;5;18;8;59;36;474495193;0;0;0;0;4294967295;3750003968;10297;18000000;550791250;12;0;687;-8159;44;-0,102534;2,466799;-0,9951209;2,203124;1,733031E+07;173,3867;1327103
0,7184827;0,1469287;172;0,04363441;-0,08337879;-9,810131;39,63867;50,20142;13;5;18;8;59;36;844613859;0;0;0;0;4294967295;3750003968;10310;18000000;550791500;12;0;681;-8230;45;-0,1031419;2,480794;-0,998786;2,210377;1,733031E+07;173,3867;1327103
0,7656727;0,1527481;172;0,03652477;-0,07613945;-9,834842;39,64371;50,20142;13;5;18;8;59;37;154661859;0;0;0;0;4294967295;3750003968;10322;18000000;550791750;12;0;676;-8289;45;-0,1056359;2,492301;-1,004497;2,217624;1,733031E+07;173,3867;1327103
0,7967844;0,133723;172;0,03156757;-0,0810051;-9,822541;39,61349;50,20142;13;5;18;8;59;37;454655459;0;0;0;0;4294967295;3750003968;10346;18000000;550792250;12;0;670;-8356;45;-0,1077555;2,507216;-1,00973;2,224869;1,733031E+07;173,3867;1327103
0,8028374;0,1453465;172;0,04374409;-0,08832741;-9,819832;39,6286;50,20142;13;5;18;8;59;37;654655459;0;0;0;0;4294967295;3750003968;10346;18000000;550792250;12;0;665;-8401;45;-0,1079708;2,518229;-1,012862;2,229696;1,733031E+07;173,3867;1327103
0,7855099;0,1378744;171;0,05591297;-0,09319592;-9,817173;39,63867;50,20142;13;5;18;8;59;38;164661248;0;0;0;0;4294967295;3750004224;10382;18000000;550793000;12;0;653;-8529;46;-0,1097;2,549037;-1,019214;2,244161;1,733031E+07;173,3867;1327103
0,7690253;0,1452607;171;0,05589008;-0,09318542;-9,814723;39,6286;50,20142;13;5;18;8;59;38;424661515;0;0;0;0;4294967295;3750004224;10382;18000000;550793000;12;0;647;-8589;46;-0,1097145;2,562339;-1,022126;2,24898;1,733031E+07;173,3867;1327103
0,7547718;0,157087;171;0,04603767;-0,06622314;-9,815351;39,63867;50,20142;13;5;18;8;59;38;704818314;0;0;0;0;4294967295;3750003968;10406;18000000;550793500;12;0;640;-8654;46;-0,1104224;2,57653;-1,024745;2,256203;1,733031E+07;173,3867;1327103
0,754356;0,1291064;171;0,04608154;-0,07114029;-9,817702;39,61349;50,20142;13;5;18;8;59;39;14659018;0;0;0;0;4294967295;3750004224;10418;18000000;550793750;12;0;634;-8714;47;-0,1128101;2,588796;-1,028356;2,263421;1,733031E+07;173,3867;1327103
0,7820222;0,1571787;171;0,03164673;-0,07859325;-9,832389;39,60846;50,20142;13;5;18;8;59;39;284665019;0;0;0;0;4294967295;3750004224;10430;18000000;550794000;12;0;626;-8789;47;-0,1134822;2,604686;-1,033682;2,270635;1,733031E+07;173,3867;1327103
0,7703357;0,1749284;171;0,04846764;-0,08580017;-9,805139;39,60846;50,20142;13;5;18;8;59;39;634610218;0;0;0;0;4294967295;3750004224;10442;18000000;550794250;12;0;618;-8859;47;-0,1143984;2,620067;-1,036886;2,277843;1,733031E+07;173,3867;1327103
0,767226;0,1649177;170;0,03168964;-0,08350945;-9,834741;39,6286;50,20142;13;5;18;8;59;40;164729635;0;0;0;0;4294967295;3750004224;10478;18000000;550795000;12;0;603;-8996;48;-0,1190105;2,646803;-1,043572;2,292238;1,733031E+07;173,3867;1327103
0,7912908;0,177514;170;0,03646946;-0,07856178;-9,827444;39,61853;50,20142;13;5;18;8;59;40;764812275;0;0;0;0;4294967295;3750004480;10502;18000000;550795500;12;0;586;-9140;48;-0,1237597;2,676624;-1,052907;2,306612;1,733031E+07;173,3867;1327103
0,7948243;0,1715487;170;0,03413582;-0,08106232;-9,837215;39,63364;50,20142;13;5;18;8;59;41;34650342;0;0;0;0;4294967295;3750004224;10514;18000000;550795750;12;0;579;-9193;49;-0,1269225;2,688412;-1,055996;2,311397;1,733031E+07;173,3867;1327103
0,7902386;0,1522323;170;0,04393387;-0,09575844;-9,836832;39,65378;50,27771;13;5;18;8;59;41;264760477;0;0;0;0;4294967295;3750004224;10526;18000000;550796000;12;0;571;-9261;49;-0,1285814;2,703213;-1,059898;2,318567;1,733031E+07;173,3867;1327103
0,785751;0,1468613;170;0,04112434;-0,07110882;-9,807949;39,64874;50,20142;13;5;18;8;59;41;574727875;0;0;0;0;4294967295;3750004480;10537;18000000;550796250;12;0;563;-9324;49;-0,1300232;2,716988;-1,063471;2,323344;1,733031E+07;173,3867;1327103
0,7891274;0,1564266;169;0,04624653;-0,08345699;-9,829706;39,63867;50,20142;13;5;18;8;59;41;784831343;0;0;0;0;4294967295;3750004480;10549;18000000;550796500;12;0;555;-9387;49;-0,1328655;2,73068;-1,067088;2,330505;1,733031E+07;173,3867;1327103
0,8120921;0,1534293;169;0,05091476;-0,07845688;-9,810162;39,61853;50,20142;13;5;18;8;59;42;74722209;0;0;0;0;4294967295;3750004480;10561;18000000;550796750;12;0;547;-9446;50;-0,1341302;2,74393;-1,070706;2,335275;1,733031E+07;173,3867;1327103
0,8229061;0,1653571;169;0,04843807;-0,06865025;-9,810379;39,64371;50,20142;13;5;18;8;59;42;264810944;0;0;0;0;4294967295;3750004480;10573;18000000;550797000;12;0;540;-9505;50;-0,1373685;2,757577;-1,074247;2,342427;1,733031E+07;173,3867;1327103
0,8499629;0,149003;169;0,02184296;-0,08347988;-9,822583;39,63867;50,20142;13;5;18;8;59;42;514567543;0;0;0;0;4294967295;3750004480;10585;18000000;550797250;12;0;530;-9580;50;-0,1413923;2,776394;-1,078991;2,349571;1,733031E+07;173,3867;1327103
0,835582;0,1373333;169;0,03151035;-0,08342648;-9,815144;39,66385;50,20142;13;5;18;8;59;42;844768609;0;0;0;0;4294967295;3750004736;10597;18000000;550797500;12;0;520;-9650;51;-0,1431309;2,793455;-1,081872;2,35433;1,733031E+07;173,3867;1327103
0,8385381;0,1625154;168;0,02921963;-0,09573841;-9,82472;39,64874;50,20142;13;5;18;8;59;43;434720876;0;0;0;0;4294967295;3750004480;10632;18000000;550798250;12;0;501;-9786;51;-0,1475456;2,826085;-1,088521;2,36859;1,733031E+07;173,3867;1327103
0,794729;0,1878427;168;0,05095863;-0,07847786;-9,815061;39,6286;50,20142;13;5;18;8;59;43;694720609;0;0;0;0;4294967295;3750004480;10632;18000000;550798250;12;0;492;-9852;51;-0,150449;2,841783;-1,089819;2,37334;1,733031E+07;173,3867;1327103
0,8077237;0,1907761;168;0,04119015;-0,0760355;-9,812751;39,61853;50,20142;13;5;18;8;59;43;954670409;0;0;0;0;4294967295;3750005248;10655;18000000;550798750;12;0;483;-9918;52;-0,153645;2,855747;-1,094102;2,380457;1,733031E+07;173,3867;1327103
0,8047863;0,1881424;168;0,04608154;-0,07114029;-9,817702;39,59839;50,20142;13;5;18;8;59;44;164754144;0;0;0;0;4294967295;3750004992;10667;18000000;550799000;12;0;473;-9985;52;-0,1585855;2,870984;-1,096142;2,38757;1,733031E+07;173,3867;1327103
0,8085467;0,2113794;168;0,02910137;-0,07365131;-9,822711;39,64371;50,20142;13;5;18;8;59;44;744833209;0;0;0;0;4294967295;3750004992;10691;18000000;550799500;12;0;451;-10135;53;-0,1685271;2,903522;-1,100509;2,399413;1,733031E+07;173,3867;1327103
0,8113211;0,1938792;167;0,03882217;-0,08586311;-9,815027;39,63364;50,20142;13;5;18;8;59;45;344706650;0;0;0;0;4294967295;3750004992;10714;18000000;550800000;12;0;428;-10291;53;-0,1809215;2,936909;-1,105445;2,413604;1,733031E+07;173,3867;1327103
0,8396554;0,1852213;167;0,04844856;-0,0711031;-9,81033;39,61853;50,20142;13;5;18;8;59;45;614571049;0;0;0;0;4294967295;3750005248;10726;18000000;550800250;12;0;419;-10349;53;-0,1840061;2,949146;-1,108399;2,420693;1,733031E+07;173,3867;1327103
0,8397002;0,1706071;167;0,05588913;-0,09808159;-9,812176;39,6286;50,20142;13;5;18;8;59;45;844652982;0;0;0;0;4294967295;3750004992;10737;18000000;550800500;12;0;408;-10424;54;-0,1882797;2,966602;-1,111177;2,425416;1,733031E+07;173,3867;1327103
0,8343682;0,170874;167;0,04131317;-0,0785408;-9,824949;39,6286;50,20142;13;5;18;8;59;46;154651715;0;0;0;0;4294967295;3750005248;10749;18000000;550800750;12;0;397;-10493;54;-0,1917918;2,983098;-1,113446;2,4325;1,733031E+07;173,3867;1327103
0,8526863;0,1454464;167;0,03653622;-0,07859325;-9,834793;39,62357;50,20142;13;5;18;8;59;46;364717050;0;0;0;0;4294967295;3750005504;10760;18000000;550801000;12;0;386;-10562;54;-0,1942269;3,000019;-1,116874;2,439579;1,733031E+07;173,3867;1327103
0,862405;0,1382371;167;0,04604721;-0,07846832;-9,810207;39,61349;50,27771;13;5;18;8;59;46;664710116;0;0;0;0;4294967295;3750005248;10784;18000000;550801500;12;0;373;-10643;55;-0,1966598;3,017921;-1,119614;2,446659;1,733031E+07;173,3867;1327103
0,8679858;0,1508669;167;0,07289696;-0,07110214;-9,822352;39,61349;50,20142;13;5;18;8;59;46;954563849;0;0;0;0;4294967295;3750005248;10795;18000000;550801750;12;0;363;-10708;55;-0,198832;3,032946;-1,122301;2,451378;1,733031E+07;173,3867;1327103
0,8529058;0,1077202;166;0,06072807;-0,07112885;-9,822465;39,61349;50,20142;13;5;18;8;59;47;204660117;0;0;0;0;4294967295;3750005248;10807;18000000;550802000;12;0;349;-10789;55;-0,2023169;3,052244;-1,124038;2,458452;1,733031E+07;173,3867;1327103
0,8546036;0,1099195;166;0,0557909;-0,08579445;-9,807521;39,63867;50,20142;13;5;18;8;59;47;704731249;0;0;0;0;4294967295;3750005248;10830;18000000;550802500;12;0;327;-10926;56;-0,203866;3,083963;-1,127507;2,470243;1,733031E+07;173,3867;1327103
0,8541306;0,1099335;166;0,04616737;-0,090765;-9,817312;39,63867;50,27771;13;5;18;8;59;48;54721283;0;0;0;0;4294967295;3750005504;10841;18000000;550802750;12;0;312;-11009;56;-0,2036626;3,103203;-1,130115;2,477316;1,733031E+07;173,3867;1327103
0,8326222;0,1103421;166;0,04617786;-0,08832264;-9,81981;39,63867;50,27771;13;5;18;8;59;48;244697659;0;0;0;0;4294967295;3750005504;10853;18000000;550803000;12;0;301;-11076;56;-0,2045372;3,118243;-1,131537;2,482031;1,733031E+07;173,3867;1327103
0,8509817;0,1268344;166;0,04132366;-0,08099365;-9,8249;39,6286;50,20142;13;5;18;8;59;48;534703591;0;0;0;0;4294967295;3750005504;10865;18000000;550803250;12;0;284;-11171;57;-0,2065409;3,138712;-1,135402;2,491465;1,733031E+07;173,3867;1327103
0,8667141;0,1165018;165;0,04376793;-0,08344078;-9,824828;39,6286;50,20142;13;5;18;8;59;48;844647658;0;0;0;0;4294967295;3750005504;10876;18000000;550803500;12;0;271;-11244;57;-0,2109565;3,155509;-1,13952;2,496184;1,733031E+07;173,3867;1327103
0,8384448;0,1089942;165;0,04365826;-0,07359791;-9,817676;39,62357;50,20142;13;5;18;8;59;49;184720192;0;0;0;0;4294967295;3750005504;10899;18000000;550804000;12;0;254;-11339;57;-0,2138086;3,177828;-1,141214;2,505622;1,733031E+07;173,3867;1327103
0,8948555;0,1400535;165;0,05817127;-0,07842064;-9,805195;39,64371;50,27771;13;5;18;8;59;50;14566924;0;0;0;0;4294967295;3750005504;10933;18000000;550804750;12;0;212;-11562;58;-0,2164175;3,230582;-1,150617;2,524522;1,733031E+07;173,3867;1327103
0,9006996;0,1490843;165;0,03643513;-0,07609749;-9,825043;39,63364;50,27771;13;5;18;8;59;50;324659192;0;0;0;0;4294967295;3750005760;10945;18000000;550805000;12;0;192;-11666;59;-0,2213973;3,257741;-1,154072;2,53162;1,733031E+07;173,3867;1327103
0,8995214;0,1754157;164;0,0460577;-0,07602501;-9,812706;39,61349;50,27771;13;5;18;8;59;51;174617858;0;0;0;0;4294967295;3750006016;10979;18000000;550805750;12;0;146;-11899;60;-0,2356981;3,317953;-1,159692;2,551064;1,733031E+07;173,3867;1327103
0,8910386;0,1941847;164;0,04134274;-0,1005878;-9,817162;39,63364;50,27771;13;5;18;8;59;51;474561391;0;0;0;0;4294967295;3750006016;11002;18000000;550806250;12;0;128;-11988;60;-0,2411493;3,339063;-1,162383;2,558377;1,733031E+07;173,3867;1327103
0,889187;0,2028469;164;0,04360008;-0,08581066;-9,805183;39,64874;50,27771;13;5;18;8;59;51;664738258;0;0;0;0;4294967295;3750006016;11013;18000000;550806500;12;0;114;-12059;60;-0,2463986;3,355462;-1,165394;2,565693;1,733031E+07;173,3867;1327103
0,9014145;0,1928335;164;0,03641224;-0,08098412;-9,820045;39,66888;50,27771;13;5;18;8;59;51;954634991;0;0;0;0;4294967295;3750006016;11024;18000000;550806750;12;0;100;-12131;60;-0,251789;3,372885;-1,168323;2,570572;1,733031E+07;173,3867;1327103
0,8827807;0,2147434;164;0,0509901;-0,08583641;-9,814914;39,64874;50,27771;13;5;18;8;59;52;224730326;0;0;0;0;4294967295;3750006016;11036;18000000;550807000;12;0;80;-12227;61;-0,259791;3,395376;-1,171047;2,577893;1,733031E+07;173,3867;1327103
0,864381;0,1909379;163;0,06272984;-0,04888916;-9,786139;39,64371;50,27771;13;5;18;8;59;52;454735657;0;0;0;0;4294967295;3750006016;11047;18000000;550807250;12;0;63;-12312;61;-0,2665123;3,41545;-1,172088;2,585218;1,733031E+07;173,3867;1327103
0,8418846;0,1785963;163;0,04608154;-0,07114029;-9,817702;39,63364;50,27771;13;5;18;8;59;52;704716124;0;0;0;0;4294967295;3750006016;11058;18000000;550807500;12;0;50;-12373;61;-0,2717022;3,428766;-1,172426;2,590098;1,733031E+07;173,3867;1327103
0,8864917;0,194366;163;0,04843903;-0,05885887;-9,815474;39,65378;50,20142;13;5;18;8;59;53;304767725;0;0;0;0;4294967295;3750006016;11081;18000000;550808000;12;0;12;-12556;62;-0,2806339;3,466561;-1,180233;2,604754;1,733031E+07;173,3867;1327103
0,9605573;0,1838542;163;0,05341721;-0,06379509;-9,825129;39,63867;50,27771;13;5;18;8;59;53;844916461;0;0;0;0;4294967295;3750006272;11104;18000000;550808500;12;0;-22;-12723;63;-0,2916619;3,504474;-1,189511;2,616972;1,733031E+07;173,3867;1327103
0,9396289;0,1595807;163;0,04131317;-0,0785408;-9,824949;39,6286;50,27771;13;5;18;8;59;54;194613591;0;0;0;0;4294967295;3750006272;11115;18000000;550809000;12;0;-42;-12817;63;-0,2991374;3,52937;-1,190908;2,624305;1,733031E+07;173,3867;1327103
0,916605;0,1721217;162;0,04372501;-0,07362843;-9,825024;39,64874;50,27771;13;5;18;8;59;54;414718191;0;0;0;0;4294967295;3750006272;11137;18000000;550809250;12;0;-63;-12917;63;-0,3049006;3,553858;-1,193186;2,634085;1,733031E+07;173,3867;1327103
0,9419162;0,1905819;162;0,04832268;-0,08328533;-9,79049;39,63364;50,27771;13;5;18;8;59;54;744661391;0;0;0;0;4294967295;3750006528;11148;18000000;550809500;12;0;-83;-13006;64;-0,3111369;3,574854;-1,195836;2,638977;1,733031E+07;173,3867;1327103
0,9456764;0,2079264;162;0,04152584;-0,08108711;-9,846947;39,64874;50,27771;13;5;18;8;59;55;34638791;0;0;0;0;4294967295;3750006272;11160;18000000;550809750;12;0;-99;-13082;64;-0,317919;3,593939;-1,198949;2,646314;1,733031E+07;173,3867;1327103
